[
  {
    "id": 1,
    "forest_name": "MAHOUNA",
    "daira": "GUELMA",
    "commune": "GUELMA",
    "latitude": 36.45,
    "longitude": 7.43,
    "fire_date": "2024-07-15",
    "surface_burned": 120.5,
    "cause": "Natural",
    "severity": "high",
    "notes": "Major summer fire"
  },
  {
    "id": 2,
    "forest_name": "BENI SALAH",
    "daira": "BOUCHEGOUF",
    "commune": "BOUCHEGOUF",
    "latitude": 36.46,
    "longitude": 7.71,
    "fire_date": "2024-08-02",
    "surface_burned": 85.0,
    "cause": "Human",
    "severity": "critical",
    "notes": "Arson suspected"
  },
  {
    "id": 3,
    "forest_name": "DJ DEBAGH",
    "daira": "HAMMAM DEBAGH",
    "commune": "HAMMAM DEBAGH",
    "latitude": 36.47,
    "longitude": 7.23,
    "fire_date": "2024-06-20",
    "surface_burned": 45.0,
    "cause": "Natural",
    "severity": "medium",
    "notes": "Lightning strike"
  },
  {
    "id": 4,
    "forest_name": "DJ HALOUF",
    "daira": "GUELMA",
    "commune": "AIN BEN BEIDA",
    "latitude": 36.5,
    "longitude": 7.35,
    "fire_date": "2024-09-10",
    "surface_burned": 200.0,
    "cause": "Unknown",
    "severity": "critical",
    "notes": "Large fire"
  },
  {
    "id": 5,
    "forest_name": "EL MINA",
    "daira": "OUED ZENATI",
    "commune": "OUED ZENATI",
    "latitude": 36.3,
    "longitude": 7.17,
    "fire_date": "2024-07-28",
    "surface_burned": 30.0,
    "cause": "Human",
    "severity": "low",
    "notes": "Small brush fire"
  },
  {
    "id": 6,
    "forest_name": "FEKIRINA",
    "daira": "KHEZARAS",
    "commune": "KHEZARAS",
    "latitude": 36.41,
    "longitude": 7.55,
    "fire_date": "2025-06-10",
    "surface_burned": 95.0,
    "cause": "Natural",
    "severity": "high",
    "notes": "Dry season fire"
  },
  {
    "id": 7,
    "forest_name": "SILA",
    "daira": "GUELMA",
    "commune": "GUELMA",
    "latitude": 36.44,
    "longitude": 7.4,
    "fire_date": "2025-07-05",
    "surface_burned": 150.0,
    "cause": "Human",
    "severity": "critical",
    "notes": "Agricultural fire spread"
  },
  {
    "id": 8,
    "forest_name": "RAGOUBA",
    "daira": "BOUCHEGOUF",
    "commune": "BOUCHEGOUF",
    "latitude": 36.48,
    "longitude": 7.68,
    "fire_date": "2025-05-15",
    "surface_burned": 22.0,
    "cause": "Natural",
    "severity": "low",
    "notes": "Minor fire"
  },
  {
    "id": 9,
    "forest_name": "OUED FRAGHA",
    "daira": "GUELMA",
    "commune": "BELKHEIR",
    "latitude": 36.42,
    "longitude": 7.48,
    "fire_date": "2025-08-20",
    "surface_burned": 180.0,
    "cause": "Unknown",
    "severity": "high",
    "notes": "Fire near valley"
  },
  {
    "id": 10,
    "forest_name": "MOUBIA",
    "daira": "HAMMAM DEBAGH",
    "commune": "AIN LARBI",
    "latitude": 36.52,
    "longitude": 7.3,
    "fire_date": "2024-08-15",
    "surface_burned": 65.0,
    "cause": "Human",
    "severity": "medium",
    "notes": "Campfire spread"
  }
]